RANGING PACKET:
TOAD ID =  32
Timestamp =  2.4353  s
Generated by TOAD 6
time of flight =  8366356
i_tow =  0
battery voltage =  0.0 V
stm32 temp =  0 degrees C



PSU MESSAGE:
TOAD ID =  32
Timestamp =  2.9255  s
battery voltage =  3.876 V
stm32 temp =  19 degrees C
charging =  0
charge current =  0 mA
charge temperature =  0 degrees C



PVT MESSAGE:
TOAD ID =  32
Timestamp =  3.3127  s
i_tow =  2000
year =  2015
month =  10
day =  18
hour =  0
minute =  0
second =  2
valid =  240
t_acc =  4294967295
nano =  0
fix_type =  0
flags =  0
num_sv =  0
lon =  0.0 degrees
lat =  0.0 degrees
height =  0.0 m
h_msl =  -17.0 m
h_acc =  4294967295
v_acc =  3750000128
velN =  0
velE =  0
velD =  0
gspeed =  0
head_mot =  0
s_acc =  20000
head_acc =  18000000
p_dop =  9999
head_veh =  0



TIM2->CCR/NAV-PVT:
TOAD ID =  32
Timestamp =  3.3128  s
PPS Timestamp =  0
iTOW =  2000



POSITION PACKET:
TOAD ID =  32
Timestamp =  3.3128  s
Generated by TOAD 6
lon =  0.0 degrees
lat =  0.0 degrees
height =  0.0 m
num sat =  0
battery voltage =  3.8 V
stm32 temp =  19 degrees C



SR TRAFFIC [RX Packet]:
TOAD ID =  32
Timestamp =  3.3618  s
Generated by TOAD 2
lon =  -0.2377594 degrees
lat =  51.3641891 degrees
height =  89.145 m
num sat =  5
battery voltage =  3.9 V
stm32 temp =  30 degrees C



SR TRAFFIC [RX Packet]:
TOAD ID =  32
Timestamp =  3.5434  s
Generated by TOAD 3
lon =  -0.2377721 degrees
lat =  51.364191 degrees
height =  94.239 m
num sat =  5
battery voltage =  3.7 V
stm32 temp =  25 degrees C



PVT MESSAGE:
TOAD ID =  32
Timestamp =  4.3129  s
i_tow =  3000
year =  2015
month =  10
day =  18
hour =  0
minute =  0
second =  3
valid =  240
t_acc =  4294967295
nano =  0
fix_type =  0
flags =  0
num_sv =  0
lon =  0.0 degrees
lat =  0.0 degrees
height =  0.0 m
h_msl =  -17.0 m
h_acc =  4294967295
v_acc =  3750000128
velN =  0
velE =  0
velD =  0
gspeed =  0
head_mot =  0
s_acc =  20000
head_acc =  18000000
p_dop =  9999
head_veh =  0



TIM2->CCR/NAV-PVT:
TOAD ID =  32
Timestamp =  4.3129  s
PPS Timestamp =  117493270
iTOW =  3000



POSITION PACKET:
TOAD ID =  32
Timestamp =  4.3129  s
Generated by TOAD 6
lon =  0.0 degrees
lat =  0.0 degrees
height =  0.0 m
num sat =  0
battery voltage =  3.8 V
stm32 temp =  19 degrees C



SR TRAFFIC [RX Packet]:
TOAD ID =  32
Timestamp =  5.18  s
Generated by TOAD 1
lon =  -0.2377606 degrees
lat =  51.3642226 degrees
height =  83.924 m
num sat =  7
battery voltage =  3.7 V
stm32 temp =  29 degrees C



PVT MESSAGE:
TOAD ID =  32
Timestamp =  5.3129  s
i_tow =  4000
year =  2015
month =  10
day =  18
hour =  0
minute =  0
second =  4
valid =  240
t_acc =  4294967295
nano =  0
fix_type =  0
flags =  0
num_sv =  0
lon =  0.0 degrees
lat =  0.0 degrees
height =  0.0 m
h_msl =  -17.0 m
h_acc =  4294967295
v_acc =  3750000128
velN =  0
velE =  0
velD =  0
gspeed =  0
head_mot =  0
s_acc =  20000
head_acc =  18000000
p_dop =  9999
head_veh =  0



TIM2->CCR/NAV-PVT:
TOAD ID =  32
Timestamp =  5.3129  s
PPS Timestamp =  201493270
iTOW =  4000



POSITION PACKET:
TOAD ID =  32
Timestamp =  5.3129  s
Generated by TOAD 6
lon =  0.0 degrees
lat =  0.0 degrees
height =  0.0 m
num sat =  0
battery voltage =  3.8 V
stm32 temp =  19 degrees C



SR TRAFFIC [RX Packet]:
TOAD ID =  32
Timestamp =  5.3435  s
Generated by TOAD 2
lon =  -0.2377589 degrees
lat =  51.3641895 degrees
height =  89.168 m
num sat =  5
battery voltage =  3.9 V
stm32 temp =  30 degrees C



SR TRAFFIC [RX Packet]:
TOAD ID =  32
Timestamp =  5.5434  s
Generated by TOAD 3
lon =  -0.237772 degrees
lat =  51.3641915 degrees
height =  94.304 m
num sat =  5
battery voltage =  3.7 V
stm32 temp =  25 degrees C



PVT MESSAGE:
TOAD ID =  32
Timestamp =  6.3148  s
i_tow =  5000
year =  2015
month =  10
day =  18
hour =  0
minute =  0
second =  5
valid =  240
t_acc =  4294967295
nano =  -341
fix_type =  0
flags =  0
num_sv =  0
lon =  0.0 degrees
lat =  0.0 degrees
height =  0.0 m
h_msl =  -17.0 m
h_acc =  4294967295
v_acc =  3750000128
velN =  0
velE =  0
velD =  0
gspeed =  0
head_mot =  0
s_acc =  20000
head_acc =  18000000
p_dop =  9999
head_veh =  0



TIM2->CCR/NAV-PVT:
TOAD ID =  32
Timestamp =  6.3148  s
PPS Timestamp =  285493270
iTOW =  5000



POSITION PACKET:
TOAD ID =  32
Timestamp =  6.3149  s
Generated by TOAD 6
lon =  0.0 degrees
lat =  0.0 degrees
height =  0.0 m
num sat =  0
battery voltage =  3.8 V
stm32 temp =  19 degrees C



SR TRAFFIC [RX Packet]:
TOAD ID =  32
Timestamp =  6.3435  s
Generated by TOAD 2
lon =  -0.2377586 degrees
lat =  51.3641899 degrees
height =  89.193 m
num sat =  5
battery voltage =  3.9 V
stm32 temp =  30 degrees C



SR TRAFFIC [RX Packet]:
TOAD ID =  32
Timestamp =  6.5435  s
Generated by TOAD 3
lon =  -0.237772 degrees
lat =  51.3641916 degrees
height =  94.324 m
num sat =  5
battery voltage =  3.7 V
stm32 temp =  25 degrees C



PVT MESSAGE:
TOAD ID =  32
Timestamp =  7.3132  s
i_tow =  6000
year =  2015
month =  10
day =  18
hour =  0
minute =  0
second =  6
valid =  240
t_acc =  4294967295
nano =  -1024
fix_type =  0
flags =  0
num_sv =  0
lon =  0.0 degrees
lat =  0.0 degrees
height =  0.0 m
h_msl =  -17.0 m
h_acc =  4294967295
v_acc =  3750000128
velN =  0
velE =  0
velD =  0
gspeed =  0
head_mot =  0
s_acc =  20000
head_acc =  18000000
p_dop =  9999
head_veh =  0



TIM2->CCR/NAV-PVT:
TOAD ID =  32
Timestamp =  7.3132  s
PPS Timestamp =  369493270
iTOW =  6000



POSITION PACKET:
TOAD ID =  32
Timestamp =  7.3133  s
Generated by TOAD 6
lon =  0.0 degrees
lat =  0.0 degrees
height =  0.0 m
num sat =  0
battery voltage =  3.8 V
stm32 temp =  19 degrees C



SR TRAFFIC [RX Packet]:
TOAD ID =  32
Timestamp =  7.3435  s
Generated by TOAD 2
lon =  -0.2377583 degrees
lat =  51.36419 degrees
height =  89.192 m
num sat =  5
battery voltage =  3.9 V
stm32 temp =  30 degrees C



SR TRAFFIC [RX Packet]:
TOAD ID =  32
Timestamp =  7.5434  s
Generated by TOAD 2
lon =  -0.2377583 degrees
lat =  51.36419 degrees
height =  89.192 m
num sat =  5
battery voltage =  3.9 V
stm32 temp =  30 degrees C



PVT MESSAGE:
TOAD ID =  32
Timestamp =  8.3132  s
i_tow =  7000
year =  2015
month =  10
day =  18
hour =  0
minute =  0
second =  7
valid =  240
t_acc =  4294967295
nano =  -379
fix_type =  0
flags =  0
num_sv =  0
lon =  0.0 degrees
lat =  0.0 degrees
height =  0.0 m
h_msl =  -17.0 m
h_acc =  4294967295
v_acc =  3750000128
velN =  0
velE =  0
velD =  0
gspeed =  0
head_mot =  0
s_acc =  20000
head_acc =  18000000
p_dop =  9999
head_veh =  0



TIM2->CCR/NAV-PVT:
TOAD ID =  32
Timestamp =  8.3132  s
PPS Timestamp =  453493270
iTOW =  7000



POSITION PACKET:
TOAD ID =  32
Timestamp =  8.3132  s
Generated by TOAD 6
lon =  0.0 degrees
lat =  0.0 degrees
height =  0.0 m
num sat =  0
battery voltage =  3.8 V
stm32 temp =  19 degrees C



SR TRAFFIC [RX Packet]:
TOAD ID =  32
Timestamp =  8.3435  s
Generated by TOAD 2
lon =  -0.2377582 degrees
lat =  51.3641901 degrees
height =  89.194 m
num sat =  5
battery voltage =  3.9 V
stm32 temp =  29 degrees C



PSU MESSAGE:
TOAD ID =  32
Timestamp =  8.4256  s
battery voltage =  3.863 V
stm32 temp =  25 degrees C
charging =  0
charge current =  0 mA
charge temperature =  0 degrees C



SR TRAFFIC [RX Packet]:
TOAD ID =  32
Timestamp =  9.1435  s
Generated by TOAD 1
lon =  -0.2377616 degrees
lat =  51.3642257 degrees
height =  83.707 m
num sat =  7
battery voltage =  3.7 V
stm32 temp =  30 degrees C



SR TRAFFIC [RX Packet]:
TOAD ID =  32
Timestamp =  9.3435  s
Generated by TOAD 1
lon =  -0.2377616 degrees
lat =  51.3642257 degrees
height =  83.707 m
num sat =  7
battery voltage =  3.7 V
stm32 temp =  30 degrees C



PVT MESSAGE:
TOAD ID =  32
Timestamp =  9.475  s
i_tow =  546331953
year =  2015
month =  10
day =  24
hour =  7
minute =  45
second =  14
valid =  242
t_acc =  4294967295
nano =  953000321
fix_type =  0
flags =  0
num_sv =  0
lon =  0.0 degrees
lat =  0.0 degrees
height =  0.0 m
h_msl =  -17.0 m
h_acc =  4294967295
v_acc =  3750000128
velN =  0
velE =  0
velD =  0
gspeed =  0
head_mot =  0
s_acc =  20000
head_acc =  18000000
p_dop =  9999
head_veh =  0



TIM2->CCR/NAV-PVT:
TOAD ID =  32
Timestamp =  9.475  s
PPS Timestamp =  537493270
iTOW =  546331953



POSITION PACKET:
TOAD ID =  32
Timestamp =  9.475  s
Generated by TOAD 6
lon =  0.0 degrees
lat =  0.0 degrees
height =  0.0 m
num sat =  0
battery voltage =  3.8 V
stm32 temp =  25 degrees C



SR TRAFFIC [RX Packet]:
TOAD ID =  32
Timestamp =  9.5435  s
Generated by TOAD 1
lon =  -0.2377616 degrees
lat =  51.3642257 degrees
height =  83.707 m
num sat =  7
battery voltage =  3.7 V
stm32 temp =  30 degrees C



SR TRAFFIC [RX Packet]:
TOAD ID =  32
Timestamp =  10.3436  s
Generated by TOAD 2
lon =  -0.2377575 degrees
lat =  51.36419 degrees
height =  89.126 m
num sat =  5
battery voltage =  3.9 V
stm32 temp =  29 degrees C



PVT MESSAGE:
TOAD ID =  32
Timestamp =  10.5213  s
i_tow =  546333000
year =  2015
month =  10
day =  24
hour =  7
minute =  45
second =  16
valid =  242
t_acc =  4294967295
nano =  995
fix_type =  0
flags =  0
num_sv =  0
lon =  0.0 degrees
lat =  0.0 degrees
height =  0.0 m
h_msl =  -17.0 m
h_acc =  4294967295
v_acc =  3750000128
velN =  0
velE =  0
velD =  0
gspeed =  0
head_mot =  0
s_acc =  20000
head_acc =  18000000
p_dop =  9999
head_veh =  0



TIM2->CCR/NAV-PVT:
TOAD ID =  32
Timestamp =  10.5213  s
PPS Timestamp =  621493270
iTOW =  546333000



POSITION PACKET:
TOAD ID =  32
Timestamp =  10.5214  s
Generated by TOAD 6
lon =  0.0 degrees
lat =  0.0 degrees
height =  0.0 m
num sat =  0
battery voltage =  3.8 V
stm32 temp =  25 degrees C



SR TRAFFIC [RX Packet]:
TOAD ID =  32
Timestamp =  10.5434  s
Generated by TOAD 2
lon =  -0.2377575 degrees
lat =  51.36419 degrees
height =  89.126 m
num sat =  5
battery voltage =  3.9 V
stm32 temp =  29 degrees C



SR TRAFFIC [RX Packet]:
TOAD ID =  32
Timestamp =  11.38  s
Generated by TOAD 2
lon =  -0.2377572 degrees
lat =  51.36419 degrees
height =  89.129 m
num sat =  5
battery voltage =  3.9 V
stm32 temp =  29 degrees C



PVT MESSAGE:
TOAD ID =  32
Timestamp =  11.8826  s
i_tow =  546334000
year =  2015
month =  10
day =  24
hour =  7
minute =  45
second =  17
valid =  242
t_acc =  4294967295
nano =  1637
fix_type =  0
flags =  0
num_sv =  0
lon =  0.0 degrees
lat =  0.0 degrees
height =  0.0 m
h_msl =  -17.0 m
h_acc =  4294967295
v_acc =  3750000128
velN =  0
velE =  0
velD =  0
gspeed =  0
head_mot =  0
s_acc =  20000
head_acc =  18000000
p_dop =  9999
head_veh =  0



TIM2->CCR/NAV-PVT:
TOAD ID =  32
Timestamp =  11.8826  s
PPS Timestamp =  789493270
iTOW =  546334000



POSITION PACKET:
TOAD ID =  32
Timestamp =  11.8827  s
Generated by TOAD 6
lon =  0.0 degrees
lat =  0.0 degrees
height =  0.0 m
num sat =  0
battery voltage =  3.8 V
stm32 temp =  25 degrees C



SR TRAFFIC [RX Packet]:
TOAD ID =  32
Timestamp =  12.3435  s
Generated by TOAD 2
lon =  -0.2377571 degrees
lat =  51.3641897 degrees
height =  89.179 m
num sat =  5
battery voltage =  3.9 V
stm32 temp =  29 degrees C



PVT MESSAGE:
TOAD ID =  32
Timestamp =  12.5217  s
i_tow =  546335000
year =  2015
month =  10
day =  24
hour =  7
minute =  45
second =  18
valid =  242
t_acc =  4294967295
nano =  2280
fix_type =  0
flags =  0
num_sv =  0
lon =  0.0 degrees
lat =  0.0 degrees
height =  0.0 m
h_msl =  -17.0 m
h_acc =  4294967295
v_acc =  3750000128
velN =  0
velE =  0
velD =  0
gspeed =  0
head_mot =  0
s_acc =  20000
head_acc =  18000000
p_dop =  9999
head_veh =  0



TIM2->CCR/NAV-PVT:
TOAD ID =  32
Timestamp =  12.5218  s
PPS Timestamp =  789493270
iTOW =  546335000



POSITION PACKET:
TOAD ID =  32
Timestamp =  12.5218  s
Generated by TOAD 6
lon =  0.0 degrees
lat =  0.0 degrees
height =  0.0 m
num sat =  0
battery voltage =  3.8 V
stm32 temp =  25 degrees C



SR TRAFFIC [RX Packet]:
TOAD ID =  32
Timestamp =  13.514  s
Generated by TOAD 2
lon =  -0.2377567 degrees
lat =  51.3641897 degrees
height =  89.188 m
num sat =  5
battery voltage =  3.9 V
stm32 temp =  29 degrees C



PVT MESSAGE:
TOAD ID =  32
Timestamp =  13.5217  s
i_tow =  546336000
year =  2015
month =  10
day =  24
hour =  7
minute =  45
second =  19
valid =  242
t_acc =  4294967295
nano =  2923
fix_type =  0
flags =  0
num_sv =  0
lon =  0.0 degrees
lat =  0.0 degrees
height =  0.0 m
h_msl =  -17.0 m
h_acc =  4294967295
v_acc =  3750000128
velN =  0
velE =  0
velD =  0
gspeed =  0
head_mot =  0
s_acc =  20000
head_acc =  18000000
p_dop =  9999
head_veh =  0



TIM2->CCR/NAV-PVT:
TOAD ID =  32
Timestamp =  13.5218  s
PPS Timestamp =  873493270
iTOW =  546336000



POSITION PACKET:
TOAD ID =  32
Timestamp =  13.5218  s
Generated by TOAD 6
lon =  0.0 degrees
lat =  0.0 degrees
height =  0.0 m
num sat =  0
battery voltage =  3.8 V
stm32 temp =  25 degrees C



PSU MESSAGE:
TOAD ID =  32
Timestamp =  13.9896  s
battery voltage =  3.875 V
stm32 temp =  25 degrees C
charging =  0
charge current =  0 mA
charge temperature =  0 degrees C



SR TRAFFIC [RX Packet]:
TOAD ID =  32
Timestamp =  14.1435  s
Generated by TOAD 1
lon =  -0.2377598 degrees
lat =  51.364225 degrees
height =  83.84 m
num sat =  6
battery voltage =  3.7 V
stm32 temp =  29 degrees C



PVT MESSAGE:
TOAD ID =  32
Timestamp =  14.5124  s
i_tow =  546337000
year =  2015
month =  10
day =  24
hour =  7
minute =  45
second =  20
valid =  242
t_acc =  4294967295
nano =  3566
fix_type =  0
flags =  0
num_sv =  0
lon =  0.0 degrees
lat =  0.0 degrees
height =  0.0 m
h_msl =  -17.0 m
h_acc =  4294967295
v_acc =  3750000128
velN =  0
velE =  0
velD =  0
gspeed =  0
head_mot =  0
s_acc =  20000
head_acc =  18000000
p_dop =  9999
head_veh =  0



TIM2->CCR/NAV-PVT:
TOAD ID =  32
Timestamp =  14.5125  s
PPS Timestamp =  957493270
iTOW =  546337000



POSITION PACKET:
TOAD ID =  32
Timestamp =  14.5125  s
Generated by TOAD 6
lon =  0.0 degrees
lat =  0.0 degrees
height =  0.0 m
num sat =  0
battery voltage =  3.8 V
stm32 temp =  25 degrees C



SR TRAFFIC [RX Packet]:
TOAD ID =  32
Timestamp =  14.5435  s
Generated by TOAD 1
lon =  -0.2377598 degrees
lat =  51.364225 degrees
height =  83.84 m
num sat =  6
battery voltage =  3.7 V
stm32 temp =  29 degrees C



SR TRAFFIC [RX Packet]:
TOAD ID =  32
Timestamp =  15.3618  s
Generated by TOAD 2
lon =  -0.2377564 degrees
lat =  51.3641899 degrees
height =  89.273 m
num sat =  5
battery voltage =  3.9 V
stm32 temp =  29 degrees C



PVT MESSAGE:
TOAD ID =  32
Timestamp =  15.5218  s
i_tow =  546338000
year =  2017
month =  9
day =  2
hour =  7
minute =  45
second =  21
valid =  243
t_acc =  4294967295
nano =  4208
fix_type =  0
flags =  0
num_sv =  0
lon =  0.0 degrees
lat =  0.0 degrees
height =  0.0 m
h_msl =  -17.0 m
h_acc =  4294967295
v_acc =  3750000128
velN =  0
velE =  0
velD =  0
gspeed =  0
head_mot =  0
s_acc =  20000
head_acc =  18000000
p_dop =  9999
head_veh =  0



TIM2->CCR/NAV-PVT:
TOAD ID =  32
Timestamp =  15.5218  s
PPS Timestamp =  1041493270
iTOW =  546338000



POSITION PACKET:
TOAD ID =  32
Timestamp =  15.5218  s
Generated by TOAD 6
lon =  0.0 degrees
lat =  0.0 degrees
height =  0.0 m
num sat =  0
battery voltage =  3.8 V
stm32 temp =  25 degrees C



SR TRAFFIC [RX Packet]:
TOAD ID =  32
Timestamp =  15.5617  s
Generated by TOAD 2
lon =  -0.2377564 degrees
lat =  51.3641899 degrees
height =  89.273 m
num sat =  5
battery voltage =  3.9 V
stm32 temp =  29 degrees C



PVT MESSAGE:
TOAD ID =  32
Timestamp =  16.69  s
i_tow =  546339000
year =  2017
month =  9
day =  2
hour =  7
minute =  45
second =  22
valid =  243
t_acc =  4294967295
nano =  4850
fix_type =  0
flags =  0
num_sv =  0
lon =  0.0 degrees
lat =  0.0 degrees
height =  0.0 m
h_msl =  -17.0 m
h_acc =  4294967295
v_acc =  3750000128
velN =  0
velE =  0
velD =  0
gspeed =  0
head_mot =  0
s_acc =  20000
head_acc =  18000000
p_dop =  9999
head_veh =  0



TIM2->CCR/NAV-PVT:
TOAD ID =  32
Timestamp =  16.69  s
PPS Timestamp =  1125493270
iTOW =  546339000



POSITION PACKET:
TOAD ID =  32
Timestamp =  16.69  s
Generated by TOAD 6
lon =  0.0 degrees
lat =  0.0 degrees
height =  0.0 m
num sat =  0
battery voltage =  3.8 V
stm32 temp =  25 degrees C



SR TRAFFIC [RX Packet]:
TOAD ID =  32
Timestamp =  16.7677  s
Generated by TOAD 3
lon =  -0.2377721 degrees
lat =  51.3641917 degrees
height =  94.288 m
num sat =  5
battery voltage =  3.7 V
stm32 temp =  25 degrees C



SR TRAFFIC [RX Packet]:
TOAD ID =  32
Timestamp =  17.38  s
Generated by TOAD 2
lon =  -0.2377563 degrees
lat =  51.3641903 degrees
height =  89.302 m
num sat =  5
battery voltage =  3.9 V
stm32 temp =  29 degrees C



PVT MESSAGE:
TOAD ID =  32
Timestamp =  17.5229  s
i_tow =  546340000
year =  2017
month =  9
day =  2
hour =  7
minute =  45
second =  23
valid =  243
t_acc =  4294967295
nano =  5491
fix_type =  0
flags =  0
num_sv =  0
lon =  0.0 degrees
lat =  0.0 degrees
height =  0.0 m
h_msl =  -17.0 m
h_acc =  4294967295
v_acc =  3750000128
velN =  0
velE =  0
velD =  0
gspeed =  0
head_mot =  0
s_acc =  20000
head_acc =  18000000
p_dop =  9999
head_veh =  0



TIM2->CCR/NAV-PVT:
TOAD ID =  32
Timestamp =  17.5229  s
PPS Timestamp =  1209493270
iTOW =  546340000



POSITION PACKET:
TOAD ID =  32
Timestamp =  17.5229  s
Generated by TOAD 6
lon =  0.0 degrees
lat =  0.0 degrees
height =  0.0 m
num sat =  0
battery voltage =  3.8 V
stm32 temp =  25 degrees C



SR TRAFFIC [RX Packet]:
TOAD ID =  32
Timestamp =  17.58  s
Generated by TOAD 2
lon =  -0.2377563 degrees
lat =  51.3641903 degrees
height =  89.302 m
num sat =  5
battery voltage =  3.9 V
stm32 temp =  29 degrees C



SR TRAFFIC [RX Packet]:
TOAD ID =  32
Timestamp =  18.3617  s
Generated by TOAD 2
lon =  -0.237756 degrees
lat =  51.3641904 degrees
height =  89.307 m
num sat =  5
battery voltage =  3.9 V
stm32 temp =  29 degrees C



PVT MESSAGE:
TOAD ID =  32
Timestamp =  18.5217  s
i_tow =  546341000
year =  2017
month =  9
day =  2
hour =  7
minute =  45
second =  24
valid =  243
t_acc =  4294967295
nano =  6131
fix_type =  0
flags =  0
num_sv =  0
lon =  0.0 degrees
lat =  0.0 degrees
height =  0.0 m
h_msl =  -17.0 m
h_acc =  4294967295
v_acc =  3750000128
velN =  0
velE =  0
velD =  0
gspeed =  0
head_mot =  0
s_acc =  20000
head_acc =  18000000
p_dop =  9999
head_veh =  0



TIM2->CCR/NAV-PVT:
TOAD ID =  32
Timestamp =  18.5218  s
PPS Timestamp =  1293493270
iTOW =  546341000



POSITION PACKET:
TOAD ID =  32
Timestamp =  18.5218  s
Generated by TOAD 6
lon =  0.0 degrees
lat =  0.0 degrees
height =  0.0 m
num sat =  0
battery voltage =  3.8 V
stm32 temp =  25 degrees C



SR TRAFFIC [RX Packet]:
TOAD ID =  32
Timestamp =  18.5617  s
Generated by TOAD 2
lon =  -0.237756 degrees
lat =  51.3641904 degrees
height =  89.307 m
num sat =  5
battery voltage =  3.9 V
stm32 temp =  29 degrees C



SR TRAFFIC [RX Packet]:
TOAD ID =  32
Timestamp =  19.3435  s
Generated by TOAD 2
lon =  -0.2377557 degrees
lat =  51.3641906 degrees
height =  89.328 m
num sat =  5
battery voltage =  3.9 V
stm32 temp =  30 degrees C



PSU MESSAGE:
TOAD ID =  32
Timestamp =  19.4897  s
battery voltage =  3.872 V
stm32 temp =  27 degrees C
charging =  0
charge current =  0 mA
charge temperature =  0 degrees C



SR TRAFFIC [RX Packet]:
TOAD ID =  32
Timestamp =  19.5435  s
Generated by TOAD 2
lon =  -0.2377557 degrees
lat =  51.3641906 degrees
height =  89.328 m
num sat =  5
battery voltage =  3.9 V
stm32 temp =  30 degrees C



PVT MESSAGE:
TOAD ID =  32
Timestamp =  19.5436  s
i_tow =  546342000
year =  2017
month =  9
day =  2
hour =  7
minute =  45
second =  25
valid =  243
t_acc =  4294967295
nano =  6770
fix_type =  0
flags =  0
num_sv =  0
lon =  0.0 degrees
lat =  0.0 degrees
height =  0.0 m
h_msl =  -17.0 m
h_acc =  4294967295
v_acc =  3750000128
velN =  0
velE =  0
velD =  0
gspeed =  0
head_mot =  0
s_acc =  20000
head_acc =  18000000
p_dop =  9999
head_veh =  0



TIM2->CCR/NAV-PVT:
TOAD ID =  32
Timestamp =  19.5436  s
PPS Timestamp =  1377493270
iTOW =  546342000



POSITION PACKET:
TOAD ID =  32
Timestamp =  19.5437  s
Generated by TOAD 6
lon =  0.0 degrees
lat =  0.0 degrees
height =  0.0 m
num sat =  0
battery voltage =  3.8 V
stm32 temp =  27 degrees C



SR TRAFFIC [RX Packet]:
TOAD ID =  32
Timestamp =  20.3434  s
Generated by TOAD 2
lon =  -0.2377552 degrees
lat =  51.3641906 degrees
height =  89.33 m
num sat =  5
battery voltage =  3.9 V
stm32 temp =  30 degrees C



PVT MESSAGE:
TOAD ID =  32
Timestamp =  20.5127  s
i_tow =  546343000
year =  2017
month =  9
day =  2
hour =  7
minute =  45
second =  26
valid =  243
t_acc =  4294967295
nano =  7409
fix_type =  0
flags =  0
num_sv =  0
lon =  0.0 degrees
lat =  0.0 degrees
height =  0.0 m
h_msl =  -17.0 m
h_acc =  4294967295
v_acc =  3750000128
velN =  0
velE =  0
velD =  0
gspeed =  0
head_mot =  0
s_acc =  20000
head_acc =  18000000
p_dop =  9999
head_veh =  0



TIM2->CCR/NAV-PVT:
TOAD ID =  32
Timestamp =  20.5127  s
PPS Timestamp =  1461493270
iTOW =  546343000



POSITION PACKET:
TOAD ID =  32
Timestamp =  20.5128  s
Generated by TOAD 6
lon =  0.0 degrees
lat =  0.0 degrees
height =  0.0 m
num sat =  0
battery voltage =  3.8 V
stm32 temp =  27 degrees C



SR TRAFFIC [RX Packet]:
TOAD ID =  32
Timestamp =  20.5434  s
Generated by TOAD 2
lon =  -0.2377552 degrees
lat =  51.3641906 degrees
height =  89.33 m
num sat =  5
battery voltage =  3.9 V
stm32 temp =  30 degrees C



PVT MESSAGE:
TOAD ID =  32
Timestamp =  21.5217  s
i_tow =  546344000
year =  2017
month =  9
day =  2
hour =  7
minute =  45
second =  27
valid =  243
t_acc =  4294967295
nano =  8048
fix_type =  0
flags =  0
num_sv =  0
lon =  0.0 degrees
lat =  0.0 degrees
height =  0.0 m
h_msl =  -17.0 m
h_acc =  4294967295
v_acc =  3750000128
velN =  0
velE =  0
velD =  0
gspeed =  0
head_mot =  0
s_acc =  20000
head_acc =  18000000
p_dop =  9999
head_veh =  0



TIM2->CCR/NAV-PVT:
TOAD ID =  32
Timestamp =  21.5217  s
PPS Timestamp =  1545493270
iTOW =  546344000



POSITION PACKET:
TOAD ID =  32
Timestamp =  21.5217  s
Generated by TOAD 6
lon =  0.0 degrees
lat =  0.0 degrees
height =  0.0 m
num sat =  0
battery voltage =  3.8 V
stm32 temp =  27 degrees C



SR TRAFFIC [RX Packet]:
TOAD ID =  32
Timestamp =  22.5516  s
Generated by TOAD 2
lon =  -0.2377556 degrees
lat =  51.3641913 degrees
height =  89.479 m
num sat =  5
battery voltage =  3.9 V
stm32 temp =  30 degrees C



PVT MESSAGE:
TOAD ID =  32
Timestamp =  22.5518  s
i_tow =  546345000
year =  2017
month =  9
day =  2
hour =  7
minute =  45
second =  28
valid =  243
t_acc =  4294967295
nano =  8686
fix_type =  0
flags =  0
num_sv =  0
lon =  0.0 degrees
lat =  0.0 degrees
height =  0.0 m
h_msl =  -17.0 m
h_acc =  4294967295
v_acc =  3750000128
velN =  0
velE =  0
velD =  0
gspeed =  0
head_mot =  0
s_acc =  20000
head_acc =  18000000
p_dop =  9999
head_veh =  0



TIM2->CCR/NAV-PVT:
TOAD ID =  32
Timestamp =  22.5518  s
PPS Timestamp =  1629493270
iTOW =  546345000



POSITION PACKET:
TOAD ID =  32
Timestamp =  22.5519  s
Generated by TOAD 6
lon =  0.0 degrees
lat =  0.0 degrees
height =  0.0 m
num sat =  0
battery voltage =  3.8 V
stm32 temp =  27 degrees C



SR TRAFFIC [RX Packet]:
TOAD ID =  32
Timestamp =  23.18  s
Generated by TOAD 1
lon =  -0.2377572 degrees
lat =  51.3642214 degrees
height =  84.424 m
num sat =  6
battery voltage =  3.7 V
stm32 temp =  30 degrees C



SR TRAFFIC [RX Packet]:
TOAD ID =  32
Timestamp =  23.3435  s
Generated by TOAD 2
lon =  -0.2377554 degrees
lat =  51.3641914 degrees
height =  89.511 m
num sat =  5
battery voltage =  3.9 V
stm32 temp =  30 degrees C



PVT MESSAGE:
TOAD ID =  32
Timestamp =  23.5217  s
i_tow =  546346000
year =  2017
month =  9
day =  2
hour =  7
minute =  45
second =  29
valid =  243
t_acc =  4294967295
nano =  9325
fix_type =  0
flags =  0
num_sv =  0
lon =  0.0 degrees
lat =  0.0 degrees
height =  0.0 m
h_msl =  -17.0 m
h_acc =  4294967295
v_acc =  3750000128
velN =  0
velE =  0
velD =  0
gspeed =  0
head_mot =  0
s_acc =  20000
head_acc =  18000000
p_dop =  9999
head_veh =  0



TIM2->CCR/NAV-PVT:
TOAD ID =  32
Timestamp =  23.5217  s
PPS Timestamp =  1713493270
iTOW =  546346000



POSITION PACKET:
TOAD ID =  32
Timestamp =  23.5217  s
Generated by TOAD 6
lon =  0.0 degrees
lat =  0.0 degrees
height =  0.0 m
num sat =  0
battery voltage =  3.8 V
stm32 temp =  27 degrees C



SR TRAFFIC [RX Packet]:
TOAD ID =  32
Timestamp =  24.3435  s
Generated by TOAD 2
lon =  -0.2377555 degrees
lat =  51.3641914 degrees
height =  89.572 m
num sat =  5
battery voltage =  3.9 V
stm32 temp =  29 degrees C



PVT MESSAGE:
TOAD ID =  32
Timestamp =  24.5226  s
i_tow =  546347000
year =  2017
month =  9
day =  2
hour =  7
minute =  45
second =  30
valid =  243
t_acc =  4294967295
nano =  9964
fix_type =  0
flags =  0
num_sv =  0
lon =  0.0 degrees
lat =  0.0 degrees
height =  0.0 m
h_msl =  -17.0 m
h_acc =  4294967295
v_acc =  3750000128
velN =  0
velE =  0
velD =  0
gspeed =  0
head_mot =  0
s_acc =  20000
head_acc =  18000000
p_dop =  9999
head_veh =  0



TIM2->CCR/NAV-PVT:
TOAD ID =  32
Timestamp =  24.5227  s
PPS Timestamp =  1797493270
iTOW =  546347000



POSITION PACKET:
TOAD ID =  32
Timestamp =  24.5227  s
Generated by TOAD 6
lon =  0.0 degrees
lat =  0.0 degrees
height =  0.0 m
num sat =  0
battery voltage =  3.8 V
stm32 temp =  27 degrees C



PSU MESSAGE:
TOAD ID =  32
Timestamp =  24.9898  s
battery voltage =  3.855 V
stm32 temp =  27 degrees C
charging =  0
charge current =  0 mA
charge temperature =  0 degrees C



PVT MESSAGE:
TOAD ID =  32
Timestamp =  25.689  s
i_tow =  546348000
year =  2017
month =  9
day =  2
hour =  7
minute =  45
second =  31
valid =  243
t_acc =  4294967295
nano =  -250220
fix_type =  2
flags =  1
num_sv =  3
lon =  -0.2378044 degrees
lat =  51.364253 degrees
height =  109.0 m
h_msl =  63.301 m
h_acc =  43627
v_acc =  70711
velN =  -55
velE =  4
velD =  0
gspeed =  55
head_mot =  0
s_acc =  812
head_acc =  18000000
p_dop =  245
head_veh =  0



TIM2->CCR/NAV-PVT:
TOAD ID =  32
Timestamp =  25.6891  s
PPS Timestamp =  1881493270
iTOW =  546348000



POSITION PACKET:
TOAD ID =  32
Timestamp =  25.6891  s
Generated by TOAD 6
lon =  -0.2378044 degrees
lat =  51.364253 degrees
height =  109.0 m
num sat =  3
battery voltage =  3.8 V
stm32 temp =  27 degrees C



SR TRAFFIC [RX Packet]:
TOAD ID =  32
Timestamp =  26.3805  s
Generated by TOAD 2
lon =  -0.2377558 degrees
lat =  51.3641915 degrees
height =  89.656 m
num sat =  5
battery voltage =  3.9 V
stm32 temp =  29 degrees C



PVT MESSAGE:
TOAD ID =  32
Timestamp =  26.3807  s
i_tow =  546349000
year =  2017
month =  9
day =  2
hour =  7
minute =  45
second =  32
valid =  243
t_acc =  4294967295
nano =  -249590
fix_type =  2
flags =  0
num_sv =  3
lon =  -0.2378043 degrees
lat =  51.3642313 degrees
height =  109.194 m
h_msl =  63.495 m
h_acc =  43264
v_acc =  93595
velN =  -24
velE =  10
velD =  0
gspeed =  26
head_mot =  0
s_acc =  543
head_acc =  18000000
p_dop =  245
head_veh =  0



TIM2->CCR/NAV-PVT:
TOAD ID =  32
Timestamp =  26.3808  s
PPS Timestamp =  1965493270
iTOW =  546349000



POSITION PACKET:
TOAD ID =  32
Timestamp =  26.3808  s
Generated by TOAD 6
lon =  -0.2378043 degrees
lat =  51.3642313 degrees
height =  109.194 m
num sat =  3
battery voltage =  3.8 V
stm32 temp =  27 degrees C



PVT MESSAGE:
TOAD ID =  32
Timestamp =  27.3668  s
i_tow =  546350000
year =  2017
month =  9
day =  2
hour =  7
minute =  45
second =  33
valid =  243
t_acc =  4294967295
nano =  -248963
fix_type =  2
flags =  1
num_sv =  3
lon =  -0.2378024 degrees
lat =  51.3642428 degrees
height =  109.059 m
h_msl =  63.36 m
h_acc =  33747
v_acc =  83605
velN =  -42
velE =  -1
velD =  0
gspeed =  42
head_mot =  0
s_acc =  468
head_acc =  18000000
p_dop =  245
head_veh =  0



TIM2->CCR/NAV-PVT:
TOAD ID =  32
Timestamp =  27.3668  s
PPS Timestamp =  2049493270
iTOW =  546350000



POSITION PACKET:
TOAD ID =  32
Timestamp =  27.3668  s
Generated by TOAD 6
lon =  -0.2378024 degrees
lat =  51.3642428 degrees
height =  109.059 m
num sat =  3
battery voltage =  3.8 V
stm32 temp =  27 degrees C



SR TRAFFIC [RX Packet]:
TOAD ID =  32
Timestamp =  27.5434  s
Generated by TOAD 3
lon =  -0.2377705 degrees
lat =  51.364192 degrees
height =  94.327 m
num sat =  5
battery voltage =  3.7 V
stm32 temp =  25 degrees C



SR TRAFFIC [RX Packet]:
TOAD ID =  32
Timestamp =  28.3437  s
Generated by TOAD 2
lon =  -0.237756 degrees
lat =  51.3641915 degrees
height =  89.752 m
num sat =  5
battery voltage =  3.9 V
stm32 temp =  29 degrees C



PVT MESSAGE:
TOAD ID =  32
Timestamp =  28.3668  s
i_tow =  546351000
year =  2017
month =  9
day =  2
hour =  7
minute =  45
second =  34
valid =  243
t_acc =  4294967295
nano =  -248336
fix_type =  2
flags =  1
num_sv =  3
lon =  -0.2378017 degrees
lat =  51.364245 degrees
height =  109.229 m
h_msl =  63.53 m
h_acc =  28581
v_acc =  78550
velN =  -34
velE =  8
velD =  0
gspeed =  34
head_mot =  0
s_acc =  416
head_acc =  18000000
p_dop =  245
head_veh =  0



TIM2->CCR/NAV-PVT:
TOAD ID =  32
Timestamp =  28.3668  s
PPS Timestamp =  2133493270
iTOW =  546351000



POSITION PACKET:
TOAD ID =  32
Timestamp =  28.3668  s
Generated by TOAD 6
lon =  -0.2378017 degrees
lat =  51.364245 degrees
height =  109.229 m
num sat =  3
battery voltage =  3.8 V
stm32 temp =  27 degrees C



SR TRAFFIC [RX Packet]:
TOAD ID =  32
Timestamp =  28.5434  s
Generated by TOAD 2
lon =  -0.237756 degrees
lat =  51.3641915 degrees
height =  89.752 m
num sat =  5
battery voltage =  3.9 V
stm32 temp =  29 degrees C



SR TRAFFIC [RX Packet]:
TOAD ID =  32
Timestamp =  29.3437  s
Generated by TOAD 2
lon =  -0.2377555 degrees
lat =  51.3641913 degrees
height =  89.74 m
num sat =  5
battery voltage =  3.9 V
stm32 temp =  29 degrees C



PVT MESSAGE:
TOAD ID =  32
Timestamp =  29.3665  s
i_tow =  546352000
year =  2017
month =  9
day =  2
hour =  7
minute =  45
second =  35
valid =  243
t_acc =  4294967295
nano =  -247710
fix_type =  2
flags =  1
num_sv =  3
lon =  -0.2378011 degrees
lat =  51.3642467 degrees
height =  109.187 m
h_msl =  63.489 m
h_acc =  25232
v_acc =  75471
velN =  -24
velE =  9
velD =  0
gspeed =  26
head_mot =  0
s_acc =  373
head_acc =  18000000
p_dop =  245
head_veh =  0



TIM2->CCR/NAV-PVT:
TOAD ID =  32
Timestamp =  29.3666  s
PPS Timestamp =  2217493270
iTOW =  546352000



POSITION PACKET:
TOAD ID =  32
Timestamp =  29.3666  s
Generated by TOAD 6
lon =  -0.2378011 degrees
lat =  51.3642467 degrees
height =  109.187 m
num sat =  3
battery voltage =  3.8 V
stm32 temp =  27 degrees C



SR TRAFFIC [RX Packet]:
TOAD ID =  32
Timestamp =  29.5435  s
Generated by TOAD 2
lon =  -0.2377555 degrees
lat =  51.3641913 degrees
height =  89.74 m
num sat =  5
battery voltage =  3.9 V
stm32 temp =  29 degrees C



SR TRAFFIC [RX Packet]:
TOAD ID =  32
Timestamp =  30.3437  s
Generated by TOAD 2
lon =  -0.2377554 degrees
lat =  51.3641913 degrees
height =  89.766 m
num sat =  5
battery voltage =  3.9 V
stm32 temp =  30 degrees C



PVT MESSAGE:
TOAD ID =  32
Timestamp =  30.3666  s
i_tow =  546353000
year =  2017
month =  9
day =  2
hour =  7
minute =  45
second =  36
valid =  243
t_acc =  4294967295
nano =  -247083
fix_type =  2
flags =  1
num_sv =  3
lon =  -0.2378001 degrees
lat =  51.3642485 degrees
height =  109.435 m
h_msl =  63.736 m
h_acc =  23020
v_acc =  73407
velN =  -23
velE =  6
velD =  0
gspeed =  24
head_mot =  0
s_acc =  340
head_acc =  18000000
p_dop =  245
head_veh =  0



TIM2->CCR/NAV-PVT:
TOAD ID =  32
Timestamp =  30.3666  s
PPS Timestamp =  2301493270
iTOW =  546353000



POSITION PACKET:
TOAD ID =  32
Timestamp =  30.3666  s
Generated by TOAD 6
lon =  -0.2378001 degrees
lat =  51.3642485 degrees
height =  109.435 m
num sat =  3
battery voltage =  3.8 V
stm32 temp =  27 degrees C



PSU MESSAGE:
TOAD ID =  32
Timestamp =  30.4899  s
battery voltage =  3.873 V
stm32 temp =  27 degrees C
charging =  0
charge current =  0 mA
charge temperature =  0 degrees C



SR TRAFFIC [RX Packet]:
TOAD ID =  32
Timestamp =  30.5434  s
Generated by TOAD 2
lon =  -0.2377554 degrees
lat =  51.3641913 degrees
height =  89.766 m
num sat =  5
battery voltage =  3.9 V
stm32 temp =  30 degrees C



SR TRAFFIC [RX Packet]:
TOAD ID =  32
Timestamp =  31.3805  s
Generated by TOAD 2
lon =  -0.2377553 degrees
lat =  51.364191 degrees
height =  89.79 m
num sat =  5
battery voltage =  3.9 V
stm32 temp =  30 degrees C



PVT MESSAGE:
TOAD ID =  32
Timestamp =  31.3807  s
i_tow =  546354000
year =  2017
month =  9
day =  2
hour =  7
minute =  45
second =  37
valid =  243
t_acc =  4294967295
nano =  -246457
fix_type =  2
flags =  1
num_sv =  3
lon =  -0.2377992 degrees
lat =  51.3642508 degrees
height =  109.533 m
h_msl =  63.834 m
h_acc =  21166
v_acc =  71884
velN =  -18
velE =  6
velD =  0
gspeed =  19
head_mot =  0
s_acc =  316
head_acc =  18000000
p_dop =  245
head_veh =  0



TIM2->CCR/NAV-PVT:
TOAD ID =  32
Timestamp =  31.3807  s
PPS Timestamp =  2385493270
iTOW =  546354000



POSITION PACKET:
TOAD ID =  32
Timestamp =  31.3807  s
Generated by TOAD 6
lon =  -0.2377992 degrees
lat =  51.3642508 degrees
height =  109.533 m
num sat =  3
battery voltage =  3.8 V
stm32 temp =  27 degrees C



SR TRAFFIC [RX Packet]:
TOAD ID =  32
Timestamp =  31.5434  s
Generated by TOAD 3
lon =  -0.2377691 degrees
lat =  51.3641926 degrees
height =  94.433 m
num sat =  5
battery voltage =  3.7 V
stm32 temp =  25 degrees C



SR TRAFFIC [RX Packet]:
TOAD ID =  32
Timestamp =  32.3621  s
Generated by TOAD 2
lon =  -0.2377556 degrees
lat =  51.3641911 degrees
height =  89.84 m
num sat =  5
battery voltage =  3.9 V
stm32 temp =  30 degrees C



PVT MESSAGE:
TOAD ID =  32
Timestamp =  32.3665  s
i_tow =  546355000
year =  2017
month =  9
day =  2
hour =  7
minute =  45
second =  38
valid =  243
t_acc =  4294967295
nano =  -245829
fix_type =  2
flags =  1
num_sv =  3
lon =  -0.2377988 degrees
lat =  51.3642531 degrees
height =  109.495 m
h_msl =  63.796 m
h_acc =  19824
v_acc =  70764
velN =  -14
velE =  5
velD =  0
gspeed =  15
head_mot =  0
s_acc =  296
head_acc =  18000000
p_dop =  245
head_veh =  0



TIM2->CCR/NAV-PVT:
TOAD ID =  32
Timestamp =  32.3665  s
PPS Timestamp =  2469493270
iTOW =  546355000



POSITION PACKET:
TOAD ID =  32
Timestamp =  32.3665  s
Generated by TOAD 6
lon =  -0.2377988 degrees
lat =  51.3642531 degrees
height =  109.495 m
num sat =  3
battery voltage =  3.8 V
stm32 temp =  27 degrees C



PVT MESSAGE:
TOAD ID =  32
Timestamp =  33.3664  s
i_tow =  546356000
year =  2017
month =  9
day =  2
hour =  7
minute =  45
second =  39
valid =  243
t_acc =  4294967295
nano =  -245201
fix_type =  2
flags =  1
num_sv =  3
lon =  -0.2377982 degrees
lat =  51.3642537 degrees
height =  109.533 m
h_msl =  63.834 m
h_acc =  18716
v_acc =  69870
velN =  -14
velE =  6
velD =  0
gspeed =  15
head_mot =  0
s_acc =  280
head_acc =  18000000
p_dop =  245
head_veh =  0



TIM2->CCR/NAV-PVT:
TOAD ID =  32
Timestamp =  33.3665  s
PPS Timestamp =  2553493270
iTOW =  546356000



POSITION PACKET:
TOAD ID =  32
Timestamp =  33.3665  s
Generated by TOAD 6
lon =  -0.2377982 degrees
lat =  51.3642537 degrees
height =  109.533 m
num sat =  3
battery voltage =  3.8 V
stm32 temp =  27 degrees C



SR TRAFFIC [RX Packet]:
TOAD ID =  32
Timestamp =  34.3437  s
Generated by TOAD 2
lon =  -0.2377568 degrees
lat =  51.3641916 degrees
height =  89.964 m
num sat =  5
battery voltage =  3.9 V
stm32 temp =  30 degrees C



PVT MESSAGE:
TOAD ID =  32
Timestamp =  34.3664  s
i_tow =  546357000
year =  2017
month =  9
day =  2
hour =  7
minute =  45
second =  40
valid =  243
t_acc =  4294967295
nano =  -244573
fix_type =  2
flags =  1
num_sv =  3
lon =  -0.2377984 degrees
lat =  51.364254 degrees
height =  109.305 m
h_msl =  63.606 m
h_acc =  17782
v_acc =  69151
velN =  -11
velE =  4
velD =  0
gspeed =  12
head_mot =  0
s_acc =  266
head_acc =  18000000
p_dop =  245
head_veh =  0



TIM2->CCR/NAV-PVT:
TOAD ID =  32
Timestamp =  34.3664  s
PPS Timestamp =  2637493270
iTOW =  546357000



POSITION PACKET:
TOAD ID =  32
Timestamp =  34.3664  s
Generated by TOAD 6
lon =  -0.2377984 degrees
lat =  51.364254 degrees
height =  109.305 m
num sat =  3
battery voltage =  3.8 V
stm32 temp =  27 degrees C



SR TRAFFIC [RX Packet]:
TOAD ID =  32
Timestamp =  34.5434  s
Generated by TOAD 2
lon =  -0.2377568 degrees
lat =  51.3641916 degrees
height =  89.964 m
num sat =  5
battery voltage =  3.9 V
stm32 temp =  30 degrees C



PVT MESSAGE:
TOAD ID =  32
Timestamp =  35.688  s
i_tow =  546358000
year =  2017
month =  9
day =  2
hour =  7
minute =  45
second =  41
valid =  243
t_acc =  4294967295
nano =  -243944
fix_type =  2
flags =  1
num_sv =  3
lon =  -0.2377981 degrees
lat =  51.3642541 degrees
height =  109.281 m
h_msl =  63.582 m
h_acc =  16981
v_acc =  68559
velN =  -11
velE =  5
velD =  0
gspeed =  12
head_mot =  0
s_acc =  253
head_acc =  18000000
p_dop =  245
head_veh =  0



TIM2->CCR/NAV-PVT:
TOAD ID =  32
Timestamp =  35.688  s
PPS Timestamp =  2721493270
iTOW =  546358000



POSITION PACKET:
TOAD ID =  32
Timestamp =  35.688  s
Generated by TOAD 6
lon =  -0.2377981 degrees
lat =  51.3642541 degrees
height =  109.281 m
num sat =  3
battery voltage =  3.8 V
stm32 temp =  27 degrees C



PSU MESSAGE:
TOAD ID =  32
Timestamp =  36.1883  s
battery voltage =  3.865 V
stm32 temp =  27 degrees C
charging =  0
charge current =  0 mA
charge temperature =  0 degrees C



SR TRAFFIC [RX Packet]:
TOAD ID =  32
Timestamp =  36.3437  s
Generated by TOAD 2
lon =  -0.2377579 degrees
lat =  51.3641917 degrees
height =  90.086 m
num sat =  5
battery voltage =  3.9 V
stm32 temp =  29 degrees C



PVT MESSAGE:
TOAD ID =  32
Timestamp =  36.3672  s
i_tow =  546359000
year =  2017
month =  9
day =  2
hour =  7
minute =  45
second =  42
valid =  243
t_acc =  4294967295
nano =  -243316
fix_type =  2
flags =  1
num_sv =  3
lon =  -0.2377975 degrees
lat =  51.3642546 degrees
height =  109.194 m
h_msl =  63.495 m
h_acc =  16285
v_acc =  68062
velN =  -11
velE =  5
velD =  0
gspeed =  12
head_mot =  0
s_acc =  243
head_acc =  18000000
p_dop =  245
head_veh =  0



TIM2->CCR/NAV-PVT:
TOAD ID =  32
Timestamp =  36.3672  s
PPS Timestamp =  2805493270
iTOW =  546359000



POSITION PACKET:
TOAD ID =  32
Timestamp =  36.3672  s
Generated by TOAD 6
lon =  -0.2377975 degrees
lat =  51.3642546 degrees
height =  109.194 m
num sat =  3
battery voltage =  3.8 V
stm32 temp =  27 degrees C



SR TRAFFIC [RX Packet]:
TOAD ID =  32
Timestamp =  36.5434  s
Generated by TOAD 2
lon =  -0.2377579 degrees
lat =  51.3641917 degrees
height =  90.086 m
num sat =  5
battery voltage =  3.9 V
stm32 temp =  29 degrees C



SR TRAFFIC [RX Packet]:
TOAD ID =  32
Timestamp =  37.3437  s
Generated by TOAD 2
lon =  -0.2377586 degrees
lat =  51.3641917 degrees
height =  90.125 m
num sat =  4
battery voltage =  3.9 V
stm32 temp =  29 degrees C



PVT MESSAGE:
TOAD ID =  32
Timestamp =  37.3668  s
i_tow =  546360000
year =  2017
month =  9
day =  2
hour =  7
minute =  45
second =  43
valid =  243
t_acc =  4294967295
nano =  -242688
fix_type =  2
flags =  1
num_sv =  3
lon =  -0.2377976 degrees
lat =  51.3642541 degrees
height =  109.132 m
h_msl =  63.433 m
h_acc =  15673
v_acc =  67641
velN =  -9
velE =  4
velD =  0
gspeed =  10
head_mot =  0
s_acc =  233
head_acc =  18000000
p_dop =  245
head_veh =  0



TIM2->CCR/NAV-PVT:
TOAD ID =  32
Timestamp =  37.3669  s
PPS Timestamp =  2889493270
iTOW =  546360000



POSITION PACKET:
TOAD ID =  32
Timestamp =  37.3669  s
Generated by TOAD 6
lon =  -0.2377976 degrees
lat =  51.3642541 degrees
height =  109.132 m
num sat =  3
battery voltage =  3.8 V
stm32 temp =  27 degrees C



SR TRAFFIC [RX Packet]:
TOAD ID =  32
Timestamp =  38.18  s
Generated by TOAD 1
lon =  -0.2377548 degrees
lat =  51.3642203 degrees
height =  84.888 m
num sat =  6
battery voltage =  3.7 V
stm32 temp =  29 degrees C



SR TRAFFIC [RX Packet]:
TOAD ID =  32
Timestamp =  38.3805  s
Generated by TOAD 2
lon =  -0.2377589 degrees
lat =  51.3641915 degrees
height =  90.135 m
num sat =  4
battery voltage =  3.9 V
stm32 temp =  29 degrees C



PVT MESSAGE:
TOAD ID =  32
Timestamp =  38.3807  s
i_tow =  546361000
year =  2017
month =  9
day =  2
hour =  7
minute =  45
second =  44
valid =  243
t_acc =  4294967295
nano =  -242061
fix_type =  2
flags =  1
num_sv =  3
lon =  -0.2377976 degrees
lat =  51.364254 degrees
height =  109.25 m
h_msl =  63.551 m
h_acc =  15130
v_acc =  67278
velN =  -9
velE =  4
velD =  0
gspeed =  10
head_mot =  0
s_acc =  225
head_acc =  18000000
p_dop =  245
head_veh =  0



TIM2->CCR/NAV-PVT:
TOAD ID =  32
Timestamp =  38.3807  s
PPS Timestamp =  2973493270
iTOW =  546361000



POSITION PACKET:
TOAD ID =  32
Timestamp =  38.3808  s
Generated by TOAD 6
lon =  -0.2377976 degrees
lat =  51.364254 degrees
height =  109.25 m
num sat =  3
battery voltage =  3.8 V
stm32 temp =  27 degrees C



SR TRAFFIC [RX Packet]:
TOAD ID =  32
Timestamp =  38.5982  s
Generated by TOAD 3
lon =  -0.2377665 degrees
lat =  51.3641928 degrees
height =  94.847 m
num sat =  5
battery voltage =  3.7 V
stm32 temp =  25 degrees C



SR TRAFFIC [RX Packet]:
TOAD ID =  32
Timestamp =  39.3804  s
Generated by TOAD 2
lon =  -0.2377593 degrees
lat =  51.3641915 degrees
height =  90.157 m
num sat =  4
battery voltage =  3.9 V
stm32 temp =  29 degrees C



PVT MESSAGE:
TOAD ID =  32
Timestamp =  39.3806  s
i_tow =  546362000
year =  2017
month =  9
day =  2
hour =  7
minute =  45
second =  45
valid =  243
t_acc =  4294967295
nano =  -241433
fix_type =  2
flags =  1
num_sv =  3
lon =  -0.237798 degrees
lat =  51.3642508 degrees
height =  109.586 m
h_msl =  63.887 m
h_acc =  14681
v_acc =  67001
velN =  -9
velE =  2
velD =  0
gspeed =  9
head_mot =  0
s_acc =  217
head_acc =  18000000
p_dop =  245
head_veh =  0



TIM2->CCR/NAV-PVT:
TOAD ID =  32
Timestamp =  39.3806  s
PPS Timestamp =  3057493270
iTOW =  546362000



POSITION PACKET:
TOAD ID =  32
Timestamp =  39.3807  s
Generated by TOAD 6
lon =  -0.237798 degrees
lat =  51.3642508 degrees
height =  109.586 m
num sat =  3
battery voltage =  3.8 V
stm32 temp =  27 degrees C



SR TRAFFIC [RX Packet]:
TOAD ID =  32
Timestamp =  39.5434  s
Generated by TOAD 3
lon =  -0.2377659 degrees
lat =  51.364193 degrees
height =  94.791 m
num sat =  5
battery voltage =  3.7 V
stm32 temp =  25 degrees C



SR TRAFFIC [RX Packet]:
TOAD ID =  32
Timestamp =  40.3621  s
Generated by TOAD 2
lon =  -0.2377596 degrees
lat =  51.3641913 degrees
height =  90.171 m
num sat =  4
battery voltage =  3.9 V
stm32 temp =  29 degrees C



PVT MESSAGE:
TOAD ID =  32
Timestamp =  40.3674  s
i_tow =  546363000
year =  2017
month =  9
day =  2
hour =  7
minute =  45
second =  46
valid =  243
t_acc =  4294967295
nano =  -240807
fix_type =  2
flags =  1
num_sv =  3
lon =  -0.2377979 degrees
lat =  51.3642503 degrees
height =  109.162 m
h_msl =  63.463 m
h_acc =  14479
v_acc =  66833
velN =  -10
velE =  3
velD =  0
gspeed =  10
head_mot =  0
s_acc =  215
head_acc =  18000000
p_dop =  245
head_veh =  0



TIM2->CCR/NAV-PVT:
TOAD ID =  32
Timestamp =  40.3675  s
PPS Timestamp =  3141493270
iTOW =  546363000



POSITION PACKET:
TOAD ID =  32
Timestamp =  40.3675  s
Generated by TOAD 6
lon =  -0.2377979 degrees
lat =  51.3642503 degrees
height =  109.162 m
num sat =  3
battery voltage =  3.8 V
stm32 temp =  27 degrees C



SR TRAFFIC [RX Packet]:
TOAD ID =  32
Timestamp =  40.5799  s
Generated by TOAD 3
lon =  -0.2377655 degrees
lat =  51.3641933 degrees
height =  94.86 m
num sat =  5
battery voltage =  3.7 V
stm32 temp =  25 degrees C



PVT MESSAGE:
TOAD ID =  32
Timestamp =  41.3671  s
i_tow =  546364000
year =  2017
month =  9
day =  2
hour =  7
minute =  45
second =  47
valid =  243
t_acc =  4294967295
nano =  -240180
fix_type =  2
flags =  1
num_sv =  3
lon =  -0.2377977 degrees
lat =  51.3642501 degrees
height =  109.077 m
h_msl =  63.378 m
h_acc =  14292
v_acc =  67000
velN =  -10
velE =  3
velD =  0
gspeed =  10
head_mot =  0
s_acc =  213
head_acc =  18000000
p_dop =  245
head_veh =  0



TIM2->CCR/NAV-PVT:
TOAD ID =  32
Timestamp =  41.3671  s
PPS Timestamp =  3225493270
iTOW =  546364000



POSITION PACKET:
TOAD ID =  32
Timestamp =  41.3671  s
Generated by TOAD 6
lon =  -0.2377977 degrees
lat =  51.3642501 degrees
height =  109.077 m
num sat =  3
battery voltage =  3.8 V
stm32 temp =  27 degrees C



SR TRAFFIC [RX Packet]:
TOAD ID =  32
Timestamp =  41.6164  s
Generated by TOAD 3
lon =  -0.2377654 degrees
lat =  51.3641935 degrees
height =  94.855 m
num sat =  5
battery voltage =  3.7 V
stm32 temp =  25 degrees C



PSU MESSAGE:
TOAD ID =  32
Timestamp =  41.6884  s
battery voltage =  3.867 V
stm32 temp =  28 degrees C
charging =  0
charge current =  0 mA
charge temperature =  0 degrees C



SR TRAFFIC [RX Packet]:
TOAD ID =  32
Timestamp =  42.3804  s
Generated by TOAD 2
lon =  -0.2377604 degrees
lat =  51.3641913 degrees
height =  90.278 m
num sat =  4
battery voltage =  3.9 V
stm32 temp =  30 degrees C



PVT MESSAGE:
TOAD ID =  32
Timestamp =  42.3807  s
i_tow =  546365000
year =  2017
month =  9
day =  2
hour =  7
minute =  45
second =  48
valid =  243
t_acc =  4294967295
nano =  -239552
fix_type =  2
flags =  1
num_sv =  3
lon =  -0.2377976 degrees
lat =  51.3642501 degrees
height =  108.783 m
h_msl =  63.084 m
h_acc =  14091
v_acc =  66903
velN =  -8
velE =  2
velD =  0
gspeed =  8
head_mot =  0
s_acc =  210
head_acc =  18000000
p_dop =  245
head_veh =  0



TIM2->CCR/NAV-PVT:
TOAD ID =  32
Timestamp =  42.3807  s
PPS Timestamp =  3309493270
iTOW =  546365000



POSITION PACKET:
TOAD ID =  32
Timestamp =  42.3807  s
Generated by TOAD 6
lon =  -0.2377976 degrees
lat =  51.3642501 degrees
height =  108.783 m
num sat =  3
battery voltage =  3.8 V
stm32 temp =  28 degrees C



SR TRAFFIC [RX Packet]:
TOAD ID =  32
Timestamp =  42.5434  s
Generated by TOAD 3
lon =  -0.2377659 degrees
lat =  51.3641934 degrees
height =  94.929 m
num sat =  5
battery voltage =  3.7 V
stm32 temp =  25 degrees C



SR TRAFFIC [RX Packet]:
TOAD ID =  32
Timestamp =  43.3436  s
Generated by TOAD 2
lon =  -0.2377612 degrees
lat =  51.3641911 degrees
height =  90.415 m
num sat =  5
battery voltage =  3.9 V
stm32 temp =  30 degrees C



PVT MESSAGE:
TOAD ID =  32
Timestamp =  43.3678  s
i_tow =  546366000
year =  2017
month =  9
day =  2
hour =  7
minute =  45
second =  49
valid =  243
t_acc =  4294967295
nano =  -238925
fix_type =  2
flags =  1
num_sv =  3
lon =  -0.2377969 degrees
lat =  51.3642492 degrees
height =  108.71 m
h_msl =  63.012 m
h_acc =  13908
v_acc =  66834
velN =  -12
velE =  2
velD =  0
gspeed =  12
head_mot =  0
s_acc =  209
head_acc =  18000000
p_dop =  245
head_veh =  0



TIM2->CCR/NAV-PVT:
TOAD ID =  32
Timestamp =  43.3678  s
PPS Timestamp =  3393493270
iTOW =  546366000



POSITION PACKET:
TOAD ID =  32
Timestamp =  43.3679  s
Generated by TOAD 6
lon =  -0.2377969 degrees
lat =  51.3642492 degrees
height =  108.71 m
num sat =  3
battery voltage =  3.8 V
stm32 temp =  28 degrees C



SR TRAFFIC [RX Packet]:
TOAD ID =  32
Timestamp =  43.5434  s
Generated by TOAD 2
lon =  -0.2377612 degrees
lat =  51.3641911 degrees
height =  90.415 m
num sat =  5
battery voltage =  3.9 V
stm32 temp =  30 degrees C



SR TRAFFIC [RX Packet]:
TOAD ID =  32
Timestamp =  44.3622  s
Generated by TOAD 2
lon =  -0.2377623 degrees
lat =  51.3641908 degrees
height =  90.554 m
num sat =  5
battery voltage =  3.9 V
stm32 temp =  30 degrees C



PVT MESSAGE:
TOAD ID =  32
Timestamp =  44.3671  s
i_tow =  546367000
year =  2017
month =  9
day =  2
hour =  7
minute =  45
second =  50
valid =  243
t_acc =  4294967295
nano =  -238297
fix_type =  2
flags =  1
num_sv =  3
lon =  -0.237796 degrees
lat =  51.3642486 degrees
height =  108.702 m
h_msl =  63.003 m
h_acc =  13733
v_acc =  66457
velN =  -11
velE =  3
velD =  0
gspeed =  12
head_mot =  0
s_acc =  208
head_acc =  18000000
p_dop =  245
head_veh =  0



TIM2->CCR/NAV-PVT:
TOAD ID =  32
Timestamp =  44.3671  s
PPS Timestamp =  3477493270
iTOW =  546367000



POSITION PACKET:
TOAD ID =  32
Timestamp =  44.3671  s
Generated by TOAD 6
lon =  -0.237796 degrees
lat =  51.3642486 degrees
height =  108.702 m
num sat =  3
battery voltage =  3.8 V
stm32 temp =  28 degrees C



SR TRAFFIC [RX Packet]:
TOAD ID =  32
Timestamp =  44.5617  s
Generated by TOAD 2
lon =  -0.2377623 degrees
lat =  51.3641908 degrees
height =  90.554 m
num sat =  5
battery voltage =  3.9 V
stm32 temp =  30 degrees C



SR TRAFFIC [RX Packet]:
TOAD ID =  32
Timestamp =  45.3805  s
Generated by TOAD 2
lon =  -0.2377629 degrees
lat =  51.3641905 degrees
height =  90.642 m
num sat =  5
battery voltage =  3.9 V
stm32 temp =  30 degrees C



PVT MESSAGE:
TOAD ID =  32
Timestamp =  45.3807  s
i_tow =  546368000
year =  2017
month =  9
day =  2
hour =  7
minute =  45
second =  51
valid =  243
t_acc =  4294967295
nano =  -237669
fix_type =  2
flags =  1
num_sv =  3
lon =  -0.237795 degrees
lat =  51.3642482 degrees
height =  108.786 m
h_msl =  63.087 m
h_acc =  13581
v_acc =  66713
velN =  -10
velE =  3
velD =  0
gspeed =  11
head_mot =  0
s_acc =  206
head_acc =  18000000
p_dop =  245
head_veh =  0



TIM2->CCR/NAV-PVT:
TOAD ID =  32
Timestamp =  45.3807  s
PPS Timestamp =  3561493270
iTOW =  546368000



POSITION PACKET:
TOAD ID =  32
Timestamp =  45.3807  s
Generated by TOAD 6
lon =  -0.237795 degrees
lat =  51.3642482 degrees
height =  108.786 m
num sat =  3
battery voltage =  3.8 V
stm32 temp =  28 degrees C



SR TRAFFIC [RX Packet]:
TOAD ID =  32
Timestamp =  45.5434  s
Generated by TOAD 3
lon =  -0.237766 degrees
lat =  51.3641938 degrees
height =  95.061 m
num sat =  5
battery voltage =  3.7 V
stm32 temp =  25 degrees C



SR TRAFFIC [RX Packet]:
TOAD ID =  32
Timestamp =  46.3804  s
Generated by TOAD 2
lon =  -0.2377634 degrees
lat =  51.3641902 degrees
height =  90.713 m
num sat =  5
battery voltage =  3.9 V
stm32 temp =  29 degrees C



PVT MESSAGE:
TOAD ID =  32
Timestamp =  46.3806  s
i_tow =  546369000
year =  2017
month =  9
day =  2
hour =  7
minute =  45
second =  52
valid =  243
t_acc =  4294967295
nano =  -237041
fix_type =  2
flags =  1
num_sv =  3
lon =  -0.2377942 degrees
lat =  51.3642474 degrees
height =  109.156 m
h_msl =  63.457 m
h_acc =  13431
v_acc =  66653
velN =  -9
velE =  3
velD =  0
gspeed =  9
head_mot =  0
s_acc =  205
head_acc =  18000000
p_dop =  245
head_veh =  0



TIM2->CCR/NAV-PVT:
TOAD ID =  32
Timestamp =  46.3806  s
PPS Timestamp =  3645493270
iTOW =  546369000



POSITION PACKET:
TOAD ID =  32
Timestamp =  46.3807  s
Generated by TOAD 6
lon =  -0.2377942 degrees
lat =  51.3642474 degrees
height =  109.156 m
num sat =  3
battery voltage =  3.8 V
stm32 temp =  28 degrees C



SR TRAFFIC [RX Packet]:
TOAD ID =  32
Timestamp =  47.1617  s
Generated by TOAD 1
lon =  -0.2377534 degrees
lat =  51.3642186 degrees
height =  85.051 m
num sat =  5
battery voltage =  3.7 V
stm32 temp =  29 degrees C



PSU MESSAGE:
TOAD ID =  32
Timestamp =  47.1885  s
battery voltage =  3.867 V
stm32 temp =  29 degrees C
charging =  0
charge current =  0 mA
charge temperature =  0 degrees C



PVT MESSAGE:
TOAD ID =  32
Timestamp =  47.3669  s
i_tow =  546370000
year =  2017
month =  9
day =  2
hour =  7
minute =  45
second =  53
valid =  243
t_acc =  4294967295
nano =  -236412
fix_type =  2
flags =  1
num_sv =  3
lon =  -0.2377933 degrees
lat =  51.3642464 degrees
height =  109.01 m
h_msl =  63.311 m
h_acc =  13292
v_acc =  66604
velN =  -8
velE =  4
velD =  0
gspeed =  9
head_mot =  0
s_acc =  203
head_acc =  18000000
p_dop =  244
head_veh =  0



TIM2->CCR/NAV-PVT:
TOAD ID =  32
Timestamp =  47.3669  s
PPS Timestamp =  3729493270
iTOW =  546370000



POSITION PACKET:
TOAD ID =  32
Timestamp =  47.367  s
Generated by TOAD 6
lon =  -0.2377933 degrees
lat =  51.3642464 degrees
height =  109.01 m
num sat =  3
battery voltage =  3.8 V
stm32 temp =  29 degrees C



SR TRAFFIC [RX Packet]:
TOAD ID =  32
Timestamp =  47.5617  s
Generated by TOAD 1
lon =  -0.2377534 degrees
lat =  51.3642186 degrees
height =  85.051 m
num sat =  5
battery voltage =  3.7 V
stm32 temp =  29 degrees C



SR TRAFFIC [RX Packet]:
TOAD ID =  32
Timestamp =  48.3621  s
Generated by TOAD 2
lon =  -0.2377638 degrees
lat =  51.3641897 degrees
height =  90.788 m
num sat =  5
battery voltage =  3.9 V
stm32 temp =  29 degrees C



PVT MESSAGE:
TOAD ID =  32
Timestamp =  48.3677  s
i_tow =  546371000
year =  2017
month =  9
day =  2
hour =  7
minute =  45
second =  54
valid =  243
t_acc =  4294967295
nano =  -235784
fix_type =  2
flags =  1
num_sv =  3
lon =  -0.2377925 degrees
lat =  51.3642456 degrees
height =  108.919 m
h_msl =  63.22 m
h_acc =  13170
v_acc =  66248
velN =  -9
velE =  3
velD =  0
gspeed =  9
head_mot =  0
s_acc =  202
head_acc =  18000000
p_dop =  244
head_veh =  0



TIM2->CCR/NAV-PVT:
TOAD ID =  32
Timestamp =  48.3678  s
PPS Timestamp =  3813493270
iTOW =  546371000



POSITION PACKET:
TOAD ID =  32
Timestamp =  48.3678  s
Generated by TOAD 6
lon =  -0.2377925 degrees
lat =  51.3642456 degrees
height =  108.919 m
num sat =  3
battery voltage =  3.8 V
stm32 temp =  29 degrees C



SR TRAFFIC [RX Packet]:
TOAD ID =  32
Timestamp =  48.5434  s
Generated by TOAD 3
lon =  -0.2377648 degrees
lat =  51.364194 degrees
height =  95.097 m
num sat =  5
battery voltage =  3.7 V
stm32 temp =  25 degrees C



SR TRAFFIC [RX Packet]:
TOAD ID =  32
Timestamp =  49.3437  s
Generated by TOAD 2
lon =  -0.237764 degrees
lat =  51.3641895 degrees
height =  90.825 m
num sat =  5
battery voltage =  3.9 V
stm32 temp =  29 degrees C



PVT MESSAGE:
TOAD ID =  32
Timestamp =  49.3663  s
i_tow =  546372000
year =  2017
month =  9
day =  2
hour =  7
minute =  45
second =  55
valid =  243
t_acc =  4294967295
nano =  -235157
fix_type =  2
flags =  1
num_sv =  3
lon =  -0.2377916 degrees
lat =  51.3642441 degrees
height =  108.759 m
h_msl =  63.06 m
h_acc =  13059
v_acc =  66206
velN =  -13
velE =  4
velD =  0
gspeed =  13
head_mot =  0
s_acc =  201
head_acc =  18000000
p_dop =  244
head_veh =  0



TIM2->CCR/NAV-PVT:
TOAD ID =  32
Timestamp =  49.3663  s
PPS Timestamp =  3897493270
iTOW =  546372000



POSITION PACKET:
TOAD ID =  32
Timestamp =  49.3663  s
Generated by TOAD 6
lon =  -0.2377916 degrees
lat =  51.3642441 degrees
height =  108.759 m
num sat =  3
battery voltage =  3.8 V
stm32 temp =  29 degrees C



SR TRAFFIC [RX Packet]:
TOAD ID =  32
Timestamp =  49.5434  s
Generated by TOAD 3
lon =  -0.2377647 degrees
lat =  51.3641942 degrees
height =  95.109 m
num sat =  5
battery voltage =  3.7 V
stm32 temp =  25 degrees C



SR TRAFFIC [RX Packet]:
TOAD ID =  32
Timestamp =  50.3622  s
Generated by TOAD 2
lon =  -0.2377647 degrees
lat =  51.3641893 degrees
height =  90.878 m
num sat =  5
battery voltage =  3.9 V
stm32 temp =  29 degrees C



PVT MESSAGE:
TOAD ID =  32
Timestamp =  50.3671  s
i_tow =  546373000
year =  2017
month =  9
day =  2
hour =  7
minute =  45
second =  56
valid =  243
t_acc =  4294967295
nano =  -234529
fix_type =  2
flags =  1
num_sv =  3
lon =  -0.2377907 degrees
lat =  51.3642433 degrees
height =  108.656 m
h_msl =  62.957 m
h_acc =  12967
v_acc =  66170
velN =  -11
velE =  4
velD =  0
gspeed =  11
head_mot =  0
s_acc =  199
head_acc =  18000000
p_dop =  244
head_veh =  0



TIM2->CCR/NAV-PVT:
TOAD ID =  32
Timestamp =  50.3672  s
PPS Timestamp =  3981493270
iTOW =  546373000



POSITION PACKET:
TOAD ID =  32
Timestamp =  50.3672  s
Generated by TOAD 6
lon =  -0.2377907 degrees
lat =  51.3642433 degrees
height =  108.656 m
num sat =  3
battery voltage =  3.8 V
stm32 temp =  29 degrees C



SR TRAFFIC [RX Packet]:
TOAD ID =  32
Timestamp =  50.5617  s
Generated by TOAD 2
lon =  -0.2377647 degrees
lat =  51.3641893 degrees
height =  90.878 m
num sat =  5
battery voltage =  3.9 V
stm32 temp =  29 degrees C



PVT MESSAGE:
TOAD ID =  32
Timestamp =  51.3668  s
i_tow =  546374000
year =  2017
month =  9
day =  2
hour =  7
minute =  45
second =  57
valid =  243
t_acc =  4294967295
nano =  -233902
fix_type =  2
flags =  1
num_sv =  3
lon =  -0.23779 degrees
lat =  51.3642425 degrees
height =  108.808 m
h_msl =  63.109 m
h_acc =  12893
v_acc =  66137
velN =  -11
velE =  4
velD =  0
gspeed =  12
head_mot =  0
s_acc =  197
head_acc =  18000000
p_dop =  244
head_veh =  0



TIM2->CCR/NAV-PVT:
TOAD ID =  32
Timestamp =  51.3668  s
PPS Timestamp =  4065493270
iTOW =  546374000



POSITION PACKET:
TOAD ID =  32
Timestamp =  51.3669  s
Generated by TOAD 6
lon =  -0.23779 degrees
lat =  51.3642425 degrees
height =  108.808 m
num sat =  3
battery voltage =  3.8 V
stm32 temp =  29 degrees C



SR TRAFFIC [RX Packet]:
TOAD ID =  32
Timestamp =  51.5617  s
Generated by TOAD 3
lon =  -0.2377639 degrees
lat =  51.3641942 degrees
height =  95.191 m
num sat =  5
battery voltage =  3.7 V
stm32 temp =  25 degrees C



SR TRAFFIC [RX Packet]:
TOAD ID =  32
Timestamp =  52.1616  s
Generated by TOAD 1
lon =  -0.237752 degrees
lat =  51.3642168 degrees
height =  85.129 m
num sat =  5
battery voltage =  3.7 V
stm32 temp =  29 degrees C



SR TRAFFIC [RX Packet]:
TOAD ID =  32
Timestamp =  52.3621  s
Generated by TOAD 1
lon =  -0.237752 degrees
lat =  51.3642168 degrees
height =  85.129 m
num sat =  5
battery voltage =  3.7 V
stm32 temp =  29 degrees C



PVT MESSAGE:
TOAD ID =  32
Timestamp =  52.3669  s
i_tow =  546375000
year =  2017
month =  9
day =  2
hour =  7
minute =  45
second =  58
valid =  243
t_acc =  4294967295
nano =  -233275
fix_type =  2
flags =  1
num_sv =  3
lon =  -0.2377895 degrees
lat =  51.3642415 degrees
height =  108.618 m
h_msl =  62.919 m
h_acc =  12815
v_acc =  66301
velN =  -13
velE =  4
velD =  0
gspeed =  13
head_mot =  0
s_acc =  198
head_acc =  18000000
p_dop =  244
head_veh =  0



TIM2->CCR/NAV-PVT:
TOAD ID =  32
Timestamp =  52.3669  s
PPS Timestamp =  4149493270
iTOW =  546375000



POSITION PACKET:
TOAD ID =  32
Timestamp =  52.367  s
Generated by TOAD 6
lon =  -0.2377895 degrees
lat =  51.3642415 degrees
height =  108.618 m
num sat =  3
battery voltage =  3.8 V
stm32 temp =  29 degrees C



SR TRAFFIC [RX Packet]:
TOAD ID =  32
Timestamp =  52.5616  s
Generated by TOAD 1
lon =  -0.237752 degrees
lat =  51.3642168 degrees
height =  85.129 m
num sat =  5
battery voltage =  3.7 V
stm32 temp =  29 degrees C



PSU MESSAGE:
TOAD ID =  32
Timestamp =  52.6886  s
battery voltage =  3.857 V
stm32 temp =  30 degrees C
charging =  0
charge current =  0 mA
charge temperature =  0 degrees C



PVT MESSAGE:
TOAD ID =  32
Timestamp =  53.3677  s
i_tow =  546376000
year =  2017
month =  9
day =  2
hour =  7
minute =  45
second =  59
valid =  243
t_acc =  4294967295
nano =  -232647
fix_type =  2
flags =  1
num_sv =  3
lon =  -0.2377888 degrees
lat =  51.3642404 degrees
height =  108.345 m
h_msl =  62.646 m
h_acc =  12746
v_acc =  66269
velN =  -14
velE =  4
velD =  0
gspeed =  14
head_mot =  0
s_acc =  197
head_acc =  18000000
p_dop =  244
head_veh =  0



TIM2->CCR/NAV-PVT:
TOAD ID =  32
Timestamp =  53.3677  s
PPS Timestamp =  4233493270
iTOW =  546376000



POSITION PACKET:
TOAD ID =  32
Timestamp =  53.3678  s
Generated by TOAD 6
lon =  -0.2377888 degrees
lat =  51.3642404 degrees
height =  108.345 m
num sat =  3
battery voltage =  3.8 V
stm32 temp =  30 degrees C



SR TRAFFIC [RX Packet]:
TOAD ID =  32
Timestamp =  54.3436  s
Generated by TOAD 2
lon =  -0.2377659 degrees
lat =  51.3641883 degrees
height =  91.053 m
num sat =  5
battery voltage =  3.9 V
stm32 temp =  30 degrees C



PVT MESSAGE:
TOAD ID =  32
Timestamp =  54.3675  s
i_tow =  546377000
year =  2017
month =  9
day =  2
hour =  7
minute =  46
second =  0
valid =  243
t_acc =  4294967295
nano =  -232018
fix_type =  2
flags =  1
num_sv =  3
lon =  -0.237788 degrees
lat =  51.3642388 degrees
height =  108.649 m
h_msl =  62.95 m
h_acc =  12684
v_acc =  66239
velN =  -17
velE =  5
velD =  0
gspeed =  18
head_mot =  0
s_acc =  196
head_acc =  18000000
p_dop =  244
head_veh =  0



TIM2->CCR/NAV-PVT:
TOAD ID =  32
Timestamp =  54.3675  s
PPS Timestamp =  22525975
iTOW =  546377000



POSITION PACKET:
TOAD ID =  32
Timestamp =  54.3675  s
Generated by TOAD 6
lon =  -0.237788 degrees
lat =  51.3642388 degrees
height =  108.649 m
num sat =  3
battery voltage =  3.8 V
stm32 temp =  30 degrees C

